{
  "data": [
    {
      "name": "ashok"
    },
    {
      "name": "balu"
    },
    {
      "name": "srinu"
    }
  ],
  "blood banks": [
    {
      "lat": 14.425585811756473,
      "lon": 78.23215593124648,
      "name": "Andhra Pradesh Vaidya Vidhana Parishad Area Hospital - IRCS Blood Bank",
      "phone": "",
      "district": "Kadapa"
    },
    {
      "lat": 14.477362636927351,
      "lon": 78.8263770468959,
      "name": "Bruhada Blood Bank",
      "phone": "8562225535",
      "district": "Kadapa"
    },
    {
      "lat": 14.478298061403564,
      "lon": 78.82656043715913,
      "name": "Khoon Ka Rishta Charitable Trust Office",
      "phone": "9948104130",
      "district": "Kadapa"
    },
    {
      "lat": 14.483851453795742,
      "lon": 78.8190763523214,
      "name": "Indian Red Cross Society Blood Bank",
      "phone": "8562272829",
      "district": "Kadapa"
    },
    {
      "lat": 14.476075332856706,
      "lon": 78.82463476462347,
      "name": "BOAGA PARVthMMA BLOOD BANK",
      "phone": "8500293444",
      "district": "Kadapa"
    },
    {
      "lat": 14.433136569854856,
      "lon": 78.86395379790206,
      "name": "RIMSBLOOD BANK",
      "phone": "",
      "district": "Kadapa"
    },
    {
      "lat": 14.05979073140272,
      "lon": 78.74792235326959,
      "name": "Sri Deepa Blood Bank",
      "phone": "",
      "district": "Kadapa"
    },
    {
      "lat": 13.217492223836572,
      "lon": 79.0916822817623,
      "name": "District Headquarters Hospital Blood Bank ",
      "phone": "",
      "district": "Chittor "
    },
    {
      "lat": 13.217193173605246,
      "lon": 79.09260942943887,
      "name": " Indian Red Cross Society Blood Bank",
      "phone": "",
      "district": "Chittor "
    },
    {
      "lat": 13.217175673605215,
      "lon": 79.10032899999109,
      "name": " Indian Red Cross Society",
      "phone": "8572220287 ",
      "district": "Chittor "
    },
    {
      "lat": 13.637699622529906,
      "lon": 79.4043114999911,
      "name": "SVIMS Blood Bank ",
      "phone": "",
      "district": "Chittor "
    },
    {
      "lat": 13.637274054401239,
      "lon": 79.41940325888663,
      "name": " RAKSHANA BLOOD BANK",
      "phone": "8772223622",
      "district": "Chittor "
    },
    {
      "lat": 13.557034674065665,
      "lon": 78.50090999999108,
      "name": "Blood Bank Ah Madanapalli ",
      "phone": "",
      "district": "Chittor "
    },
    {
      "lat": 13.551624862757155,
      "lon": 78.50605325766254,
      "name": "Madanapalle Voluntary Blood Center ",
      "phone": "7306226655 ",
      "district": "Chittor "
    },
    {
      "lat": 13.644792022559264,
      "lon": 79.40720799999109,
      "name": "Model Blood Bank Tpt ",
      "phone": "9849099750 ",
      "district": "Chittor "
    },
    {
      "lat": 13.636551784074506,
      "lon": 79.42045470796161,
      "name": "VijayasriBlood Centre ",
      "phone": "9949996411 ",
      "district": "Chittor "
    },
    {
      "lat": 13.635562474173682,
      "lon": 79.42128579999107,
      "name": "SVSCT Blood Bank ",
      "phone": "8776667671 ",
      "district": "Chittor "
    },
    {
      "lat": 13.680735374236106,
      "lon": 79.35089749999109,
      "name": "Aswini Hospital Blood Bank, TTD ",
      "phone": "",
      "district": "Chittor "
    },
    {
      "lat": 13.677085891935558,
      "lon": 79.34850249999108,
      "name": "Blood Bank of Ashwini Hospital, Tirumala Hill top ",
      "phone": "",
      "district": "Chittor "
    },
    {
      "lat": 13.64090172254314,
      "lon": 79.40992069999109,
      "name": "SVRRGGH - Model Blood Bank",
      "phone": "8772286290 ",
      "district": "Chittor "
    },
    {
      "lat": 13.63977819454601,
      "lon": 79.40779700858756,
      "name": "Government Maternity Hospital Blood Bank ",
      "phone": "",
      "district": "Chittor "
    },
    {
      "lat": 13.090844154680747,
      "lon": 78.61190098013432,
      "name": "Lakshmi Bakery And States ",
      "phone": "",
      "district": "Chittor "
    },
    {
      "lat": 14.450728423355246,
      "lon": 79.98573564869773,
      "name": "vijayasri blood bank ",
      "phone": "09701233199 ",
      "district": "Nellore "
    },
    {
      "lat": 14.434083921673125,
      "lon": 79.96863129297384,
      "name": "NEWLIFE BLOOD CENTRE ",
      "phone": " ",
      "district": "Nellore "
    },
    {
      "lat": 14.4515454963411,
      "lon": 79.9850730119963,
      "name": "Nova Blood Bank Nellore ",
      "phone": " ",
      "district": "Nellore "
    },
    {
      "lat": 14.436035629531577,
      "lon": 79.96463087564,
      "name": " District Headquarters Hospital",
      "phone": " ",
      "district": "Nellore "
    },
    {
      "lat": 14.44372881235481,
      "lon": 79.98026223529224,
      "name": "Indian Red Cross Society & Y.R.G. Care Comminity Clinic ",
      "phone": " 09948169070",
      "district": "Nellore "
    },
    {
      "lat": 14.426776702326794,
      "lon": 79.95900685220757,
      "name": "Indian Red Cross Society Cancer Hospital ",
      "phone": "08612306973 ",
      "district": "Nellore "
    },
    {
      "lat": 14.671310916199607,
      "lon": 77.60017773303447,
      "name": "Chaitanya Blood Bank ",
      "phone": "9100415777",
      "district": "Anantapur "
    },
    {
      "lat": 14.675277776779865,
      "lon": 77.60218306558988,
      "name": "Deepu Blood Bank",
      "phone": " 08554246933",
      "district": " Anantapur"
    },
    {
      "lat": 14.663088509273203,
      "lon": 77.5942242509593,
      "name": "Government General Hospital Blood Bank ",
      "phone": "08554275024",
      "district": "Anantapur "
    },
    {
      "lat": 14.668310449536088,
      "lon": 77.60205508702433,
      "name": "Chaithanya",
      "phone": " ",
      "district": " Anantapur"
    },
    {
      "lat": 14.6810380413975,
      "lon": 77.61040809550873,
      "name": " Red cross blood bank",
      "phone": " ",
      "district": "Anantapur "
    },
    {
      "lat": 16.67694024298587,
      "lon": 79.92046638321408,
      "name": " Lucky gireesh",
      "phone": " ",
      "district": "Anantapur "
    },
    {
      "lat": 14.618510095962748,
      "lon": 77.60469576581542,
      "name": "Indian Red Cross Society ",
      "phone": " ",
      "district": "Anantapur "
    },

    {
      "lat": 14.515591545006004,
      "lon": 77.76663632802467,
      "name": "Rural Development Trust Hospital Blood Bank ",
      "phone": " 08559244259",
      "district": "Anantapur "
    },

    {
      "lat": 14.694136899693879,
      "lon": 77.59919200771667,
      "name": "NBK Army Of Humanity ",
      "phone": "8008298042 ",
      "district": "Anantapur "
    },
    {
      "lat": 14.685636407446763,
      "lon": 77.59637505636509,
      "name": "KBN Clinical Lab",
      "phone": "09494931251 ",
      "district": " Anantapur"
    },
    {
      "lat": 14.693390269329177,
      "lon": 77.59126189367115,
      "name": "Pavan Clinical Lab",
      "phone": " 08142963532",
      "district": " Anantapur"
    },
    {
      "lat": 14.67134992046271,
      "lon": 77.60017168520316,
      "name": "Dena Bank",
      "phone": " 18002584455",
      "district": " Anantapur"
    },
    {
      "lat": 14.672093009355319,
      "lon": 77.6015150018866,
      "name": "Uditha Path Lab",
      "phone": " 08554231899",
      "district": " Anantapur"
    },
    {
      "lat": 14.667694631314808,
      "lon": 77.57922575471089,
      "name": "Nava Yuva Bharat Charitable Trust And Nava Yuva Bharat Students Organization",
      "phone": "09000573185 ",
      "district": " Anantapur"
    },
    {
      "lat": 14.694120683853576,
      "lon": 77.59918463152961,
      "name": "Cordlife Sciences India Pvt. Ltd. ",
      "phone": "18001216200 ",
      "district": "Anantapur "
    },
    {
      "lat": 14.680989442472375,
      "lon": 77.61044990025248,
      "name": "Indian Red Cross Society Blood Bank ",
      "phone": " ",
      "district": "Anantapur "
    },
    {
      "lat": 14.690591082687536,
      "lon": 77.59591469994268,
      "name": "NS DIAGNOSTIC ",
      "phone": " 08297765786",
      "district": "Anantapur "
    },
    {
      "lat": 15.824788232292432,
      "lon": 78.04077229999109,
      "name": "Akshaya Blood Bank",
      "phone": " 08518255573",
      "district": "Kurnool "
    },
    {
      "lat": 15.83604677744879,
      "lon": 78.04125626440894,
      "name": "Kunool Blood Bank",
      "phone": "08518222108 ",
      "district": "Kurnool "
    },
    {
      "lat": 15.828956077437462,
      "lon": 78.03850669999109,
      "name": "CARE BLOOD CENTRE",
      "phone": " 08518222111",
      "district": "Kurnool "
    },
    {
      "lat": 15.813149187061237,
      "lon": 78.03947249999109,
      "name": "New Life Blood Centre",
      "phone": " 07801010202",
      "district": "Kurnool "
    },
    {
      "lat": 15.743903377302077,
      "lon": 77.8812190999911,
      "name": "Blood bank",
      "phone": " ",
      "district": "Kurnool "
    },
    {
      "lat": 15.816243532251537,
      "lon": 78.04027132943887,
      "name": "Indian Red Cross Society Blood Bank",
      "phone": " ",
      "district": "Kurnool "
    },
    {
      "lat": 15.813759877413222,
      "lon": 78.0379814999911,
      "name": "M/S. Viswa Bharathi Blood Bank",
      "phone": " 08518222940",
      "district": "Kurnool "
    },
    {
      "lat": 15.828091177436088,
      "lon": 78.03559062943886,
      "name": "RR Blood Centre",
      "phone": "08518223131 ",
      "district": "Kurnool "
    },

    {
      "lat": 15.824837577430886,
      "lon": 78.0315312999911,
      "name": "MediPulse Blood Centre",
      "phone": " ",
      "district": "Kurnool "
    },
    {
      "lat": 15.484801515530187,
      "lon": 78.4819419533643,
      "name": "Vijaya Blood Bank",
      "phone": " 09491247878",
      "district": "Kurnool "
    },
    {
      "lat": 15.828642877436968,
      "lon": 78.03629129999109,
      "name": "R.R. Hospital And Blood Bank",
      "phone": " ",
      "district": "Kurnool "
    },

    {
      "lat": 15.485581128511441,
      "lon": 78.49101885888662,
      "name": "Nandyal blood bank",
      "phone": " ",
      "district": "Kurnool "
    },
    {
      "lat": 15.46921177686963,
      "lon": 78.48262969999108,
      "name": "District Hospital Blood Bank",
      "phone": " ",
      "district": "Kurnool "
    },
    {
      "lat": 15.49188841173325,
      "lon": 78.41906458894645,
      "name": "M/S. Shantiram Medical College & General Hospital Blood Bank",
      "phone": "08514242806 ",
      "district": "Kurnool "
    },

    {
      "lat": 15.666166177178942,
      "lon": 78.08801357054332,
      "name": "Nandyal Blood Centre",
      "phone": " 07386477466",
      "district": "Kurnool "
    },
    {
      "lat": 15.485850869313206,
      "lon": 78.48962697667768,
      "name": "Nandyal blood centre",
      "phone": " ",
      "district": "Kurnool "
    },

    {
      "lat": 15.831852396978798,
      "lon": 78.04699386318487,
      "name": "Indian Red Cross Society",
      "phone": " 01123716441",
      "district": "Kurnool "
    },
    {
      "lat": 15.167702276403531,
      "lon": 77.37923909999107,
      "name": "Gopi Blood Bank",
      "phone": " ",
      "district": "Kurnool "
    },
    {
      "lat": 15.172764676411271,
      "lon": 77.36546109999107,
      "name": "South Central Railway Hospital Blood Bank",
      "phone": " 08552227166",
      "district": "Kurnool "
    },

    {
      "lat": 15.62167048189343,
      "lon": 77.28078575275227,
      "name": "Gopi blood bank,Adon",
      "phone": " ",
      "district": "Kurnool "
    },
    {
      "lat": 15.622251637244807,
      "lon": 77.27469409999108,
      "name": "ADP Voluntary Blood Centre (Adoni praja blood bank)",
      "phone": "08331022255 ",
      "district": "Kurnool "
    },
    {
      "lat": 15.623145206086368,
      "lon": 77.26903625396247,
      "name": "RCH -II Blood Bank, Area Hospital, Adoni",
      "phone": " ",
      "district": "Kurnool "
    },
    {
      "lat": 15.815417645495561,
      "lon": 78.06019868833441,
      "name": "Indian Red Cross Society",
      "phone": " 08518255342",
      "district": "Kurnool "
    }
  ]
}
